{"1":{"id":1,"name":"Grad kulture","eventType":"Cultural event","capacity":230,"availableTickets":0,"startTime":"2021-09-22T00:00:00","regularPrice":300.0,"isActive":true,"location":{"id":0,"longitude":15.9530886,"latitude":45.7979994,"street":"Kineska cetvrt","number":"11","city":"Novi Sad","zipcode":21000},"poster":"images/e1.jfif","salesman":"s5","deleted":false},"2":{"id":2,"name":"Koncert Rade Manojlovic","eventType":"Concert","capacity":210,"availableTickets":10,"startTime":"2021-09-15T00:00:00","regularPrice":250.0,"isActive":true,"location":{"id":0,"longitude":19.8331895,"latitude":45.2596599,"street":"Bulevar oslobodjenja","number":"43","city":"Novi Sad","zipcode":21000},"poster":"images/e2.jfif","salesman":"s5","deleted":false},"3":{"id":3,"name":"ee","capacity":4,"availableTickets":0,"startTime":"2222-02-22T14:22:00","regularPrice":0.0,"isActive":true,"location":{"id":23,"longitude":0.0,"latitude":0.0,"zipcode":0},"poster":"images/e1.jfif","salesman":"s1","deleted":true},"4":{"id":4,"name":"Apoteka1","capacity":1,"availableTickets":0,"startTime":"2243-11-11T03:33:00","regularPrice":0.0,"isActive":true,"location":{"id":24,"longitude":0.0,"latitude":0.0,"zipcode":0},"poster":"images/e1.jfif","salesman":"s1","deleted":false},"5":{"id":5,"name":"Apoteka1","capacity":4,"availableTickets":0,"startTime":"0333-03-31T14:22:00","regularPrice":0.0,"isActive":false,"location":{"id":25,"longitude":0.0,"latitude":0.0,"zipcode":0},"poster":"images/e1.jfif","salesman":"s1","deleted":false},"6":{"id":6,"name":"Apoteka1","capacity":1,"availableTickets":0,"startTime":"1111-11-11T11:11:00","regularPrice":0.0,"isActive":false,"location":{"id":26,"longitude":0.0,"latitude":0.0,"street":"Bulevar Narodnog fronta","number":"2","city":"Novi Sad","zipcode":21000},"poster":"images/e1.jfif","salesman":"s1","deleted":false},"7":{"id":7,"name":"Apoteka1","capacity":2,"availableTickets":0,"startTime":"222222-02-22T14:22:00","regularPrice":0.0,"isActive":false,"location":{"id":27,"longitude":0.0,"latitude":0.0,"street":"Bulevar Narodnog fronta","number":"2","city":"Novi Sad","zipcode":21000},"poster":"images/e1.jfif","salesman":"s1","deleted":false},"8":{"id":8,"name":"Apoteka1","capacity":2,"availableTickets":0,"startTime":"222222-02-22T14:22:00","regularPrice":0.0,"isActive":false,"location":{"id":28,"longitude":19.8468698,"latitude":45.2425708,"street":"Bulevar Narodnog fronta","number":"2","city":"Novi Sad","zipcode":21000},"poster":"images/e1.jfif","salesman":"s1","deleted":false},"9":{"id":9,"name":"Apoteka1","capacity":2,"availableTickets":0,"startTime":"0333-02-22T14:22:00","regularPrice":0.0,"isActive":false,"location":{"id":29,"longitude":19.842649,"latitude":45.2416479,"street":"Bulevar Narodnog fronta","number":"1","city":"Novi Sad","zipcode":21000},"poster":"images/e1.jfif","salesman":"s1","deleted":false},"10":{"id":10,"name":"Apoteka1","capacity":1,"availableTickets":0,"startTime":"0001-01-01T11:11:00","regularPrice":0.0,"isActive":false,"location":{"id":30,"longitude":0.0,"latitude":0.0,"street":"Bulevar Narodnog fronta","number":"2","city":"Novi Sad","zipcode":21000},"poster":"images/e10.png","salesman":"s1","deleted":false},"11":{"id":11,"name":"Apoteka1","capacity":1,"availableTickets":0,"startTime":"0001-01-01T11:11:00","regularPrice":0.0,"isActive":true,"location":{"id":31,"longitude":19.8468698,"latitude":45.2425708,"street":"Bulevar Narodnog fronta","number":"2","city":"Novi Sad","zipcode":21000},"poster":"images/e11.png","salesman":"s1","deleted":false},"12":{"id":12,"name":"Marko Suljak","capacity":1,"availableTickets":0,"startTime":"111111-11-11T11:11:00","regularPrice":0.0,"isActive":true,"location":{"id":32,"longitude":19.8468698,"latitude":45.2425708,"street":"Bulevar Narodnog fronta","number":"2","city":"Novi Sad","zipcode":21000},"poster":"images/e1.jfif","salesman":"s1","deleted":false},"13":{"id":13,"name":"Apoteka1","eventType":"1","capacity":1,"availableTickets":0,"startTime":"0111-11-11T11:11:00","regularPrice":0.0,"isActive":true,"location":{"id":33,"longitude":0.0,"latitude":0.0,"street":"Bulevar Narodnog fronta","number":"2","city":"Novi Sad","zipcode":21000},"poster":"images/e1.jfif","salesman":"s1","deleted":false},"14":{"id":14,"name":"Apoteka1","eventType":"1","capacity":2,"availableTickets":0,"startTime":"0222-02-22T14:22:00","regularPrice":2.0,"isActive":false,"location":{"id":34,"longitude":0.0,"latitude":0.0,"street":"Bulevar Narodnog fronta","number":"2","city":"Novi Sad","zipcode":21000},"poster":"images/e1.jfif","salesman":"s1","deleted":false}}